{
  "41004": {
    "name": "EDISTO - 41 NM Southeast of Charleston, SC",
    "lat": 32.501,
    "lng": -79.099,
    "img": "W22A_2020_03_01_0110.jpg",
    "taoid": null,
    "width": 2880,
    "height": 300
  },
  "41008": {
    "name": "GRAYS REEF - 40 NM Southeast of Savannah, GA",
    "lat": 31.4,
    "lng": -80.868,
    "img": null,
    "taoid": null
  },
  "41009": {
    "name": "CANAVERAL 20 NM East of Cape Canaveral, FL",
    "lat": 28.508,
    "lng": -80.185,
    "img": "Z38A_2020_03_01_0110.jpg",
    "taoid": null,
    "width": 2880,
    "height": 300
  },
  "41010": {
    "name": "CANAVERAL EAST - 120NM East of Cape Canaveral",
    "lat": 28.878,
    "lng": -78.485,
    "img": "Z63A_2020_03_01_0110.jpg",
    "taoid": null,
    "width": 2880,
    "height": 300
  },
  "41013": {
    "name": "Frying Pan Shoals, NC",
    "lat": 33.436,
    "lng": -77.743,
    "img": "W37A_2020_03_01_0110.jpg",
    "taoid": null,
    "width": 2880,
    "height": 300
  },
  "41025": {
    "name": "Diamond Shoals, NC",
    "lat": 35.025,
    "lng": -75.363,
    "img": "W09A_2020_03_01_0110.jpg",
    "taoid": null,
    "width": 2880,
    "height": 300
  },
  "41040": {
    "name": "NORTH EQUATORIAL ONE- 470 NM East of Martinique",
    "lat": 14.554,
    "lng": -53.045,
    "img": "Z24A_2020_03_01_0110.jpg",
    "taoid": null,
    "width": 2880,
    "height": 300
  },
  "41044": {
    "name": "NE ST MARTIN - 330 NM NE St Martin Is",
    "lat": 21.582,
    "lng": -58.63,
    "img": null,
    "taoid": null
  },
  "41046": {
    "name": "EAST BAHAMAS - 335 NM East of San Salvador Is,  Bahamas ",
    "lat": 23.822,
    "lng": -68.384,
    "img": "W35A_2020_03_01_0110.jpg",
    "taoid": null,
    "width": 2880,
    "height": 300
  },
  "41047": {
    "name": "NE BAHAMAS - 350 NM ENE of Nassau, Bahamas",
    "lat": 27.514,
    "lng": -71.494,
    "img": "W28A_2020_03_01_0110.jpg",
    "taoid": null,
    "width": 2880,
    "height": 300
  },
  "41048": {
    "name": "WEST BERMUDA - 240 NM West of Bermuda",
    "lat": 31.831,
    "lng": -69.573,
    "img": "Z48A_2020_03_01_0110.jpg",
    "taoid": null,
    "width": 2880,
    "height": 300
  },
  "41049": {
    "name": "SOUTH BERMUDA - 300 NM SSE of Bermuda",
    "lat": 27.49,
    "lng": -62.938,
    "img": "Z80A_2020_03_01_0110.jpg",
    "taoid": null,
    "width": 2880,
    "height": 300
  },
  "42001": {
    "name": "MID GULF - 180 nm South of Southwest Pass, LA",
    "lat": 25.942,
    "lng": -89.657,
    "img": "Z15A_2020_03_01_0110.jpg",
    "taoid": null,
    "width": 2880,
    "height": 300
  },
  "42002": {
    "name": "WEST GULF - 207 NM East of Brownsville, TX",
    "lat": 26.055,
    "lng": -93.646,
    "img": "Z67A_2020_03_01_0110.jpg",
    "taoid": null,
    "width": 2880,
    "height": 300
  },
  "42003": {
    "name": "East GULF - 208 NM West of Naples, FL",
    "lat": 25.925,
    "lng": -85.615,
    "img": "W12A_2020_03_01_0110.jpg",
    "taoid": null,
    "width": 2880,
    "height": 300
  },
  "42012": {
    "name": "ORANGE BEACH - 44 NM SE of Mobile, AL",
    "lat": 30.064,
    "lng": -87.551,
    "img": "W15A_2020_03_01_0110.jpg",
    "taoid": null,
    "width": 2880,
    "height": 300
  },
  "42019": {
    "name": "FREEPORT, TX - 60 NM South of Freeport, TX",
    "lat": 27.91,
    "lng": -95.345,
    "img": null,
    "taoid": null
  },
  "42020": {
    "name": "CORPUS CHRISTI, TX - 60NM SSE of Corpus Christi, TX",
    "lat": 26.968,
    "lng": -96.693,
    "img": "Z92A_2020_03_01_0110.jpg",
    "taoid": null,
    "width": 2880,
    "height": 300
  },
  "42035": {
    "name": "GALVESTON,TX -  22 NM East of Galveston, TX",
    "lat": 29.232,
    "lng": -94.413,
    "img": "Z17A_2020_03_01_0110.jpg",
    "taoid": null,
    "width": 2880,
    "height": 300
  },
  "42036": {
    "name": "WEST TAMPA  - 112 NM WNW of Tampa, FL",
    "lat": 28.501,
    "lng": -84.516,
    "img": "Z66A_2020_03_01_0110.jpg",
    "taoid": null,
    "width": 2880,
    "height": 300
  },
  "42039": {
    "name": "PENSACOLA - 115NM SSE of Pensacola, FL",
    "lat": 28.788,
    "lng": -86.008,
    "img": null,
    "taoid": null
  },
  "42040": {
    "name": "LUKE OFFSHORE TEST PLATFORM - 63 NM South of Dauphin Island, AL",
    "lat": 29.208,
    "lng": -88.226,
    "img": "W34A_2020_03_01_0100.jpg",
    "taoid": null,
    "width": 2880,
    "height": 300
  },
  "42056": {
    "name": " Yucatan Basin - 120 NM ESE of Cozumel, MX",
    "lat": 19.82,
    "lng": -84.945,
    "img": "Z87A_2020_03_01_0110.jpg",
    "taoid": null,
    "width": 2880,
    "height": 300
  },
  "42057": {
    "name": "Western Caribbean - 195 NM WSW of Negril, Jamaica",
    "lat": 16.908,
    "lng": -81.422,
    "img": null,
    "taoid": null
  },
  "42058": {
    "name": "Central Caribbean - 210 NM SSE of Kingston, Jamaica",
    "lat": 14.776,
    "lng": -74.548,
    "img": "Z41A_2020_03_01_0110.jpg",
    "taoid": null,
    "width": 2880,
    "height": 300
  },
  "42059": {
    "name": "Eastern Caribbean Sea - 180 NM SSW of Ponce, PR",
    "lat": 15.252,
    "lng": -67.483,
    "img": "Z37A_2020_03_01_0110.jpg",
    "taoid": null,
    "width": 2880,
    "height": 300
  },
  "44008": {
    "name": "NANTUCKET 54 NM Southeast of Nantucket",
    "lat": 40.504,
    "lng": -69.248,
    "img": "Z06A_2020_03_01_0110.jpg",
    "taoid": null,
    "width": 2880,
    "height": 300
  },
  "44011": {
    "name": "GEORGES BANK 170 NM East of Hyannis, MA",
    "lat": 41.07,
    "lng": -66.588,
    "img": "Z12A_2020_03_01_0110.jpg",
    "taoid": null,
    "width": 2880,
    "height": 300
  },
  "44017": {
    "name": "MONTAUK POINT - 23 NM SSW of Montauk Point, NY",
    "lat": 40.693,
    "lng": -72.049,
    "img": null,
    "taoid": null
  },
  "44020": {
    "name": "NANTUCKET SOUND",
    "lat": 41.493,
    "lng": -70.279,
    "img": "Z64A_2020_03_01_0110.jpg",
    "taoid": null,
    "width": 2880,
    "height": 300
  },
  "44066": {
    "name": "Texas Tower #4 - 75 NM East of Long Beach, NJ",
    "lat": 39.618,
    "lng": -72.644,
    "img": "W18A_2020_03_01_0110.jpg",
    "taoid": null,
    "width": 2880,
    "height": 300
  },
  "46011": {
    "name": "SANTA MARIA - 21NM NW of Point Arguello, CA",
    "lat": 34.956,
    "lng": -121.019,
    "img": "Z32A_2020_03_01_0110.jpg",
    "taoid": null,
    "width": 2880,
    "height": 300
  },
  "46012": {
    "name": "HALF MOON BAY - 24NM SSW of San Francisco, CA",
    "lat": 37.356,
    "lng": -122.881,
    "img": "Z73A_2020_03_01_0110.jpg",
    "taoid": null,
    "width": 2880,
    "height": 300
  },
  "46013": {
    "name": "BODEGA BAY - 48NM NW of San Francisco, CA",
    "lat": 38.253,
    "lng": -123.303,
    "img": "Z60A_2020_03_01_0110.jpg",
    "taoid": null,
    "width": 2880,
    "height": 300
  },
  "46014": {
    "name": "PT ARENA - 19NM North of Point Arena, CA",
    "lat": 39.231,
    "lng": -123.974,
    "img": "Z26A_2020_03_01_0110.jpg",
    "taoid": null,
    "width": 2880,
    "height": 300
  },
  "46015": {
    "name": "PORT ORFORD - 15 NM West of Port Orford, OR",
    "lat": 42.732,
    "lng": -124.818,
    "img": null,
    "taoid": null
  },
  "46022": {
    "name": "EEL RIVER - 17NM WSW of Eureka, CA",
    "lat": 40.712,
    "lng": -124.529,
    "img": "Z56A_2020_03_01_0110.jpg",
    "taoid": null,
    "width": 2880,
    "height": 300
  },
  "46025": {
    "name": "Santa Monica Basin - 33NM WSW of Santa Monica, CA",
    "lat": 33.763,
    "lng": -119.053,
    "img": "Z90A_2020_03_01_0110.jpg",
    "taoid": null,
    "width": 2880,
    "height": 300
  },
  "46027": {
    "name": "ST GEORGES - 8 NM NW of Crescent City, CA",
    "lat": 41.852,
    "lng": -124.38,
    "img": "Z45A_2020_03_01_0110.jpg",
    "taoid": null,
    "width": 2880,
    "height": 300
  },
  "46028": {
    "name": "CAPE SAN MARTIN - 55NM West NW of Morro Bay, CA",
    "lat": 35.774,
    "lng": -121.905,
    "img": "W01A_2020_03_01_0110.jpg",
    "taoid": null,
    "width": 2880,
    "height": 300
  },
  "46042": {
    "name": "MONTEREY - 27NM WNW of Monterey, CA",
    "lat": 36.785,
    "lng": -122.398,
    "img": "Z39A_2020_03_01_0110.jpg",
    "taoid": null,
    "width": 2880,
    "height": 300
  },
  "46047": {
    "name": "TANNER BANK - 121 NM West of San Diego, CA",
    "lat": 32.404,
    "lng": -119.506,
    "img": "Z28A_2020_03_01_0110.jpg",
    "taoid": null,
    "width": 2880,
    "height": 300
  },
  "46050": {
    "name": "STONEWALL BANK - 20NM West of Newport, OR",
    "lat": 44.677,
    "lng": -124.515,
    "img": "Z95A_2020_03_01_0110.jpg",
    "taoid": null,
    "width": 2880,
    "height": 300
  },
  "46053": {
    "name": "EAST SANTA BARBARA  - 12NM Southwest of Santa Barbara, CA",
    "lat": 34.252,
    "lng": -119.853,
    "img": "Z91A_2020_03_01_0110.jpg",
    "taoid": null,
    "width": 2880,
    "height": 300
  },
  "46054": {
    "name": "WEST SANTA BARBARA  38 NM West of Santa Barbara, CA",
    "lat": 34.265,
    "lng": -120.477,
    "img": "W32A_2020_03_01_0110.jpg",
    "taoid": null,
    "width": 2880,
    "height": 300
  },
  "46059": {
    "name": "WEST CALIFORNIA - 357NM West of San Francisco, CA",
    "lat": 38.094,
    "lng": -129.951,
    "img": null,
    "taoid": null
  },
  "46069": {
    "name": "SOUTH SANTA ROSA IS. CA",
    "lat": 33.677,
    "lng": -120.213,
    "img": null,
    "taoid": null
  },
  "46085": {
    "name": "CENTRAL GULF OF ALASKA -  265NM West of Cape Ommaney, AK",
    "lat": 55.883,
    "lng": -142.882,
    "img": "W23A_2020_03_01_0110.jpg",
    "taoid": null,
    "width": 2880,
    "height": 300
  },
  "46086": {
    "name": "SAN CLEMENTE BASIN - 27NM SE Of San Clemente Is, CA",
    "lat": 32.499,
    "lng": -118.052,
    "img": "W36A_2020_03_01_0110.jpg",
    "taoid": null,
    "width": 2880,
    "height": 300
  },
  "46088": {
    "name": "NEW DUNGENESS - 17 NM NE of Port Angeles, WA",
    "lat": 48.332,
    "lng": -123.179,
    "img": "Z03A_2020_03_01_0110.jpg",
    "taoid": null,
    "width": 2880,
    "height": 300
  },
  "51001": {
    "name": "NORTHWESTERN HAWAII ONE - 188 NM NW of Kauai Island, HI",
    "lat": 24.453,
    "lng": -162,
    "img": "Z07A_2020_03_01_0110.jpg",
    "taoid": null,
    "width": 2880,
    "height": 300
  },
  "51002": {
    "name": "SOUTHWEST HAWAII - 215NM SSW of Hilo, HI",
    "lat": 17.043,
    "lng": -157.742,
    "img": "W19A_2020_03_01_0110.jpg",
    "taoid": null,
    "width": 2880,
    "height": 300
  },
  "51003": {
    "name": "WESTERN  HAWAII - 205 NM SW of Honolulu, HI",
    "lat": 19.175,
    "lng": -160.625,
    "img": "W33A_2020_03_01_0110.jpg",
    "taoid": null,
    "width": 2880,
    "height": 300
  },
  "51004": {
    "name": "SOUTHEAST HAWAII - 205 NM Southeast of Hilo, HI",
    "lat": 17.604,
    "lng": -152.364,
    "img": "Z93A_2020_03_01_0110.jpg",
    "taoid": null,
    "width": 2880,
    "height": 300
  },
  "51101": {
    "name": "NORTHWESTERN HAWAII TWO - 186 NM NW of Kauai Is., HI   ",
    "lat": 24.361,
    "lng": -162.075,
    "img": "Z35A_2020_03_01_0110.jpg",
    "taoid": null,
    "width": 2880,
    "height": 300
  }
}